[
{"id":"75","bezirk":"Lichtenberg","strasse":"Anton-Saefkow-Platz 1","plz_ort":"10369 Berlin","location":"Anton-Saefkow-Platz","tage":"Di - Do","zeiten":"10:00 - 18:00","betreiber":"Marktleitung: \nMichael und Jens Rückert GbR, Triftstr. 76, 13129 Berlin, Tel.: 0171/311 28 59","e_mail":"","www":"","bemerkungen":"","lat":"52.530932","lng":"13.471843"},
{"id":"77","bezirk":"Lichtenberg","strasse":"Am Tierpark 125","plz_ort":"10319 Berlin","location":"Bärenschaufenster / Am Tierpark\n(öffentl. Straßenland)","tage":"Mo, \nDo, \nFr","zeiten":"08:00 - 17:00","betreiber":"Marktleitung: \nGakenholz und Gellesch GmbH\nTel.: 396 11 96, 0171/602 42 04, 0171/607 53 61","e_mail":"Bgellesch@aol.com","www":"","bemerkungen":"","lat":"52.495537","lng":"13.525995"},
{"id":"79","bezirk":"Lichtenberg","strasse":"Am Tierpark 125","plz_ort":"10319 Berlin","location":"Bärenschaufenster / Am Tierpark\n(Privatfläche)","tage":"Mo, \nDo, \nFr","zeiten":"08:00 - 18:00","betreiber":"Marktleitung: \nErika Rose\nTel.: 51 09 95 09, 0172/397 26 25","e_mail":"","www":"","bemerkungen":"","lat":"52.495537","lng":"13.525995"},
{"id":"81","bezirk":"Lichtenberg","strasse":"Weißenseer Weg 1","plz_ort":"10367 Berlin","location":"Herzbergstraße / Weißenseer Weg\n(Roedernplatz)","tage":"Di, \nFr","zeiten":"08:00 - 17:00","betreiber":"Marktleitung: \nGakenholz und Gellesch GmbH\nTel.: 396 11 96, 0171/602 42 04, 0171/607 53 61","e_mail":"Bgellesch@aol.com","www":"","bemerkungen":"","lat":"52.527555","lng":"13.480063"},
{"id":"83","bezirk":"Lichtenberg","strasse":"Frankfurter Allee 172","plz_ort":"10365 Berlin","location":"Frankfurter Allee 172","tage":"Mi","zeiten":"09:00 - 16:00","betreiber":"Marktleitung: \nGakenholz und Gellesch GmbH\nTel.: 396 11 96, 0171/602 42 04, 0171/607 53 61","e_mail":"Bge","www":"","bemerkungen":"Auf dem Gelände der HoWoGe","lat":"52.512125","lng":"13.485225"},
{"id":"85","bezirk":"Lichtenberg","strasse":"Ehrenfelsstraße 2","plz_ort":"10318 Berlin","location":"Karlshorst / Ehrenfelsstraße","tage":"Di, \nFr","zeiten":"09:00 - 17:00","betreiber":"Marktleitung: \nGakenholz und Gellesch GmbH\nTel.: 396 11 96, 0171/602 42 04, 0171/607 53 61","e_mail":"Bgellesch@aol.com","www":"","bemerkungen":"","lat":"52.482167","lng":"13.526331"},
{"id":"87","bezirk":"Lichtenberg","strasse":"Seddiner Straße 1","plz_ort":"10315 Berlin","location":"Friedrichsfelde Ost / Seddiner Straße","tage":"Mo - Fr","zeiten":"08:00 - 18:00","betreiber":"Marktleitung: \nHerr A. Kühl\nTel.: 52 69 87 02, 0172/308 80 71","e_mail":"gebrueder.kuehl.gmbh@arcor.de","www":"","bemerkungen":"","lat":"52.513015","lng":"13.523288"},
{"id":"89","bezirk":"Lichtenberg","strasse":"Zingster Str. 38","plz_ort":"13051 Berlin","location":"Zingster Straße\n(zwischen Ribnitzer- und Dierhagener Straße)","tage":"Sa","zeiten":"08:00 - 13:00","betreiber":"Marktleitung: \nMarkt Service GbR Müller und Schöll,\nTel.: 0171/710 16 62 (Hr. Müller),\n0172/301 88 73 (Hr. Schöll)","e_mail":"","www":"","bemerkungen":"","lat":"52.570891","lng":"13.497184"},
{"id":"91","bezirk":"Lichtenberg","strasse":"Hauptstr. 8","plz_ort":"13055 Berlin","location":"Am Storchenhof\nHauptstraße","tage":"Di, Do\n\n\nSa","zeiten":"09:00 - 17:00\n09:00 - 14:00","betreiber":"Marktleitung: \nErika Rose\nTel.: 51 09 95 09, 0172/397 26 25","e_mail":"","www":"","bemerkungen":"","lat":"52.548673","lng":"13.502749"},
{"id":"93","bezirk":"Lichtenberg","strasse":"Hauptstr. 8","plz_ort":"13055 Berlin","location":"Am Storchenhof, Hauptstr. 8 (Freifläche)","tage":"Di - Do","zeiten":"09:00 - 17:00","betreiber":"Marktleitung: Herr Hirche\nTel.: 033439/779 79 und 0172/309 49 77\nFax: 033439/779 80","e_mail":"","www":"","bemerkungen":"","lat":"52.548673","lng":"13.502749"},
{"id":"95","bezirk":"Lichtenberg","strasse":"Landsberger Allee 358","plz_ort":"13055 Berlin","location":"Antik-, Trödel-, Sammler-, Kunsthandwerkmarkt, Landsberger Allee/Schalkauer Straße, 13055 Berlin (ggüb. Ikea)","tage":"Sa, So","zeiten":"09:00 - 15:00","betreiber":"Marktleitung: W. Partecke, Tel.: 26 07 93 86, 01520/180 70 82 und 0157/74 98 17 42","e_mail":"","www":"","bemerkungen":"","lat":"52.534103","lng":"13.503267"},
{"id":"97","bezirk":"Lichtenberg","strasse":"Prerower Platz 1","plz_ort":"13051 Berlin","location":"Prerower Platz hinter dem Lindencenter, Berlin-Hohenschönhausen","tage":"Mi","zeiten":"09:00 - 17:00","betreiber":"Marktleitung: Markt-Veranstaltungen Ina Hölzel\nTel.: 0175/276 43 57","e_mail":"markt-veranstaltungen@web.de","www":"www.markt-veranstaltungen.de","bemerkungen":"","lat":"52.564990","lng":"13.506277"}
]