[
{"lat":52.52811048506095,"lng":13.46460749108591,"spatial_name":"11170000000000009338","spatial_alias":"Karl-Lade-Str. 36 Spielpl.KGA","spatial_type":"Polygon","anlagen_nr":"1205","bezirk":"Lichtenberg","spiel_art":"Kleinkinderspielplatz","name":"Karl-Lade-Str. 36 Spielpl.KGA","name2":"\"Am alten Steuerhaus\"","groesse":"397","spiel_fl":"397","eigenstaen":"Ja","widmung":"Ja","PLANRAUM":"11030618","PLANRAUMNAME":"Fennpfuhl West"},
{"lat":52.565892172919924,"lng":13.527891346145491,"spatial_name":"11170000000000087330","spatial_alias":"Biesenbrower Str. 58 - 64 / Welsestr. 37","spatial_type":"Polygon","anlagen_nr":"2012","bezirk":"Lichtenberg","spiel_art":"Kleinkinderspielplatz","name":"Biesenbrower Str. 58 - 64 / Welsestr. 37","name2":"Spielpl.","groesse":"117","spiel_fl":"117","eigenstaen":"Ja","widmung":"Ja","PLANRAUM":"11010204","PLANRAUMNAME":"Falkenberg Ost"},
{"lat":52.51200296750343,"lng":13.482306089700305,"spatial_name":"FLV5CXBB178?L#TH3EXCJ7IS","spatial_alias":"Frankfurter Allee 144  /Spielpl.","spatial_type":"Polygon","anlagen_nr":"3381","bezirk":"Lichtenberg","spiel_art":"Kleinkinderspielplatz","name":"Frankfurter Allee 144  /Spielpl.","groesse":"61","spiel_fl":"61","eigenstaen":"Nein","widmung":"Nein","PLANRAUM":"11030824","PLANRAUMNAME":"Frankfurter Allee Süd"},
{"lat":52.52913664724272,"lng":13.477311293845045,"spatial_name":"IL>EBQBL#ERH&DYJ8CNZZI>&","spatial_alias":"Fennpfuhlpark Spielpl.an der  Kirche","spatial_type":"Polygon","anlagen_nr":"2123","bezirk":"Lichtenberg","spiel_art":"Kleinkinderspielplatz","name":"Fennpfuhlpark Spielpl.an der  Kirche","groesse":"423","spiel_fl":"423","eigenstaen":"Nein","widmung":"Ja","PLANRAUM":"11030618","PLANRAUMNAME":"Fennpfuhl West"},
{"lat":52.4776485552333,"lng":13.518533096442155,"spatial_name":"ZL3NSJ9JJWZ9MH28K49FL97K","spatial_alias":"Lehndorffstr./ Sttallwiese / Spielpl.","spatial_type":"Polygon","anlagen_nr":"936","bezirk":"Lichtenberg","spiel_art":"Kleinkinderspielplatz","name":"Lehndorffstr./ Sttallwiese / Spielpl.","baujahr":"1968","sanierung":"1994","groesse":"1145","spiel_fl":"1145","eigenstaen":"Ja","widmung":"Ja","PLANRAUM":"11051332","PLANRAUMNAME":"Karlshorst Süd"}
]